,city_num,city,country,date,humidity,cloudiness,lat,long,maxtemp,windspeed
0,1,São João da Barra,BR,1619458501,62,40,-21.6403,-41.0511,303.15,3.09
1,2,New Norfolk,AU,1619458501,77,15,-42.7826,147.0587,282.04,1.27
2,3,Dhenkānāl,IN,1619458502,89,40,20.6667,85.6,301.15,4.63
3,4,Ormara,PK,1619458502,81,6,25.2088,64.6357,300.76,5.42
4,5,Buta,CD,1619458502,81,61,2.7858,24.73,295.51,0.75
5,6,Barceloneta,PR,1619458503,77,45,18.4505,-66.5385,301.48,1.79
6,8,Thompson,CA,1619458503,81,75,55.7435,-97.8558,276.15,4.12
8,10,Nizwá,OM,1619458504,17,48,22.9333,57.5333,302.12,0.55
9,11,Nikolskoye,RU,1619458505,81,90,59.7035,30.7861,278.71,2.0
10,12,Rikitea,PF,1619458448,76,13,-23.1203,-134.9692,298.2,2.87
12,15,Bluff,NZ,1619458506,87,80,-46.6,168.3333,277.59,3.13
13,16,Kapaa,US,1619458431,73,75,22.0752,-159.319,297.15,5.14
14,17,Qandala,SO,1619458507,61,77,11.472,49.8728,303.0,2.36
15,18,Fukuechō,JP,1619458507,64,50,32.6881,128.8419,289.64,2.95
17,20,Tuktoyaktuk,CA,1619458464,78,1,69.4541,-133.0374,258.15,6.17
19,22,Mitsamiouli,KM,1619458509,74,67,-11.3847,43.2844,300.7,4.38
20,23,Ribeira Grande,PT,1619458509,72,40,38.5167,-28.7,290.15,3.09
22,25,Altay,CN,1619458510,34,31,47.8667,88.1167,275.39,3.67
25,28,Butaritari,KI,1619458458,75,85,3.0707,172.7902,301.51,6.43
26,29,Goubellat,TN,1619458511,60,20,36.5418,9.6633,294.15,9.26
27,30,Jamestown,US,1619458400,36,1,42.097,-79.2353,283.15,3.6
28,31,Mar del Plata,AR,1619458507,67,40,-38.0023,-57.5575,290.15,4.12
29,32,Zyryanka,RU,1619458512,89,13,65.75,150.85,259.05,3.93
30,33,Castro,BR,1619458484,50,22,-24.7911,-50.0119,295.63,3.29
31,34,Ouésso,CG,1619458513,61,64,1.6136,16.0517,300.15,0.95
32,35,Mataura,NZ,1619458514,87,100,-46.1927,168.8643,277.59,3.13
34,39,Nizip,TR,1619458515,47,0,37.0097,37.7942,288.15,4.83
36,42,Belyy Yar,RU,1619458516,60,100,53.6039,91.3903,275.15,1.0
38,44,Barrow,US,1619458495,85,1,71.2906,-156.7887,261.15,6.69
39,45,Lebu,CL,1619458492,67,0,-37.6167,-73.65,288.78,5.75
40,46,Carnarvon,AU,1619458517,82,1,-24.8667,113.6333,291.15,2.57
41,47,Rio Grande,BR,1619458517,49,20,-32.035,-52.0986,296.15,6.17
42,48,Macusani,PE,1619458518,41,20,-14.0833,-70.4333,284.59,1.82
43,51,Puerto Colombia,CO,1619458519,66,75,10.9878,-74.9547,305.15,4.63
44,52,Cape Town,ZA,1619458470,77,20,-33.9258,18.4232,292.04,4.12
45,53,Kālīganj,BD,1619458519,52,100,23.4095,89.1402,302.6,6.22
47,55,Longyearbyen,SJ,1619458520,63,20,78.2186,15.6401,268.15,6.17
48,56,Talnakh,RU,1619458521,87,100,69.4865,88.3972,260.77,3.81
49,57,Albany,US,1619458476,32,4,42.6001,-73.9662,283.71,2.24
51,59,Saint Paul Harbor,US,1619458522,81,90,57.79,-152.4072,279.15,3.6
52,60,Ostrovnoy,RU,1619458522,77,100,68.0531,39.5131,272.13,8.98
53,61,Huron,US,1619458523,57,17,41.1501,-82.5499,286.48,3.42
54,62,Katsuura,JP,1619458523,54,20,35.1333,140.3,284.15,5.14
55,63,Bondoukou,CI,1619458524,68,100,8.0333,-2.8,301.05,2.61
56,64,Comodoro Rivadavia,AR,1619458524,45,0,-45.8667,-67.5,291.15,3.6
57,65,Champerico,GT,1619458525,62,20,14.3,-91.9167,305.15,2.06
58,66,Angoulême,FR,1619458525,63,0,45.65,0.15,289.82,1.03
59,67,Minot,US,1619458526,66,90,48.2325,-101.2963,281.15,1.88
60,69,Taoudenni,ML,1619458526,8,46,22.6783,-3.9836,313.1,4.78
61,70,Airai,TL,1619458440,75,28,-8.9266,125.4092,286.27,0.56
62,71,Cazones de Herrera,MX,1619458527,65,75,20.7167,-97.3167,302.15,3.09
63,73,Wagar,SD,1619458527,17,80,16.1525,36.2032,309.78,2.26
64,74,Gamboma,CG,1619458528,69,59,-1.8764,15.8644,300.17,0.99
66,76,Saldanha,ZA,1619458529,88,11,-33.0117,17.9442,289.15,7.72
67,77,Klaksvík,FO,1619458529,87,75,62.2266,-6.589,279.15,6.69
68,78,Thaba-Tseka,LS,1619458530,34,31,-29.522,28.6084,283.99,3.06
69,79,Buluang,PH,1619458530,90,98,13.3068,123.3425,295.65,1.58
70,80,Hermanus,ZA,1619458530,84,8,-34.4187,19.2345,288.15,3.98
72,82,Baní,DO,1619458531,62,40,18.2833,-70.3333,304.26,3.6
73,83,Saint-Philippe,RE,1619458532,73,99,-21.3585,55.7679,299.15,7.72
75,85,Abhā,SA,1619458533,77,0,18.2164,42.5053,288.15,2.06
76,86,Ilulissat,GL,1619458533,40,75,69.2167,-51.1,284.15,7.72
77,87,Bethel,US,1619458534,30,1,41.3712,-73.414,285.37,7.72
78,88,Atuona,PF,1619458534,75,71,-9.8,-139.0333,299.53,6.11
80,90,Camapuã,BR,1619458535,57,65,-19.5314,-54.0439,299.98,2.28
81,91,Road Town,VG,1619458536,62,20,18.4167,-64.6167,303.15,4.12
82,92,Bāfq,IR,1619458536,29,87,31.6128,55.4107,298.55,1.3
83,93,Amapá,BR,1619458536,58,94,1.0,-52.0,303.38,1.86
84,94,Bathsheba,BB,1619458537,54,40,13.2167,-59.5167,302.15,8.23
85,95,Dunedin,NZ,1619458368,72,99,-45.8742,170.5036,279.26,8.05
86,96,Kristinehamn,SE,1619458538,31,90,59.3098,14.1081,282.15,2.06
87,97,Nushki,PK,1619458538,13,2,29.5542,66.0215,299.94,0.27
88,98,San Luis,AR,1619458287,40,0,-33.295,-66.3356,295.05,2.45
89,99,Bom Jardim,BR,1619458539,45,40,-7.7958,-35.5872,304.15,6.17
90,100,Saint-Joseph,RE,1619458539,73,99,-21.3667,55.6167,299.15,7.72
91,101,Northam,GB,1619458540,56,11,51.0333,-4.2167,285.37,2.6
93,103,Noshiro,JP,1619458541,64,0,40.2039,140.0242,276.65,1.0
94,104,Xining,CN,1619458541,47,27,36.6167,101.7667,277.63,1.69
95,105,Varkala,IN,1619458542,84,20,8.7341,76.7067,302.15,1.54
96,106,Isiolo,KE,1619458542,64,100,0.3546,37.5822,296.37,3.88
97,107,Hilo,US,1619458402,73,1,19.7297,-155.09,294.15,2.57
98,110,Rauma,FI,1619458543,70,90,61.1272,21.5113,277.15,4.12
99,111,Husavik,IS,1619458544,70,0,66.0449,-17.3389,277.15,4.63
100,112,Burnie,AU,1619458350,79,5,-41.0667,145.9167,282.59,1.79
101,113,Jiaozuo,CN,1619458544,25,86,35.2397,113.2331,289.33,3.34
102,114,Okara,PK,1619458427,15,0,30.8081,73.4458,303.72,2.86
103,115,Krasnaya Polyana,RU,1619458545,60,15,56.242,51.1442,278.34,3.86
104,116,Port Alfred,ZA,1619458546,81,100,-33.5906,26.891,294.03,5.47
105,118,Vanimo,PG,1619458546,84,88,-2.6741,141.3028,298.15,0.63
106,119,Fortuna,US,1619458547,81,75,40.5982,-124.1573,285.93,2.04
108,122,Matara,LK,1619458548,86,68,5.9485,80.5353,299.28,1.21
109,123,Miguel Alves,BR,1619458548,46,86,-4.1656,-42.8953,306.49,2.32
110,124,Ambanja,MG,1619458549,90,30,-13.6833,48.45,297.5,1.38
111,125,Arrondissement de Saint-Malo,FR,1619458549,58,0,48.5,-1.8333,286.15,5.66
112,126,Tasiilaq,GL,1619458550,75,75,65.6145,-37.6368,277.15,4.53
113,127,Nome,US,1619458550,75,90,64.5011,-165.4064,276.15,2.36
114,129,Hong Kong,HK,1619458418,88,100,22.2855,114.1577,296.48,0.45
116,131,Hamilton,US,1619458281,37,1,39.1834,-84.5333,294.26,3.09
117,132,Yenagoa,NG,1619458552,75,78,4.9247,6.2642,301.41,2.98
119,134,Esperance,AU,1619458553,63,100,-33.8667,121.9,292.15,4.63
120,135,Balikpapan,ID,1619458553,88,44,-1.2675,116.8289,297.94,1.89
121,136,Buraidah,SA,1619458554,32,20,26.326,43.975,303.15,1.03
122,137,Pericos,MX,1619458554,44,75,25.05,-107.7,301.15,5.14
125,140,Beïnamar,TD,1619458556,27,69,8.6698,15.3813,307.01,2.16
126,141,Kumul,CN,1619458556,15,9,42.8,93.45,283.46,5.64
127,142,Kalmunai,LK,1619458529,79,78,7.4167,81.8167,299.97,4.5
128,143,Morro da Fumaça,BR,1619458557,49,0,-28.6508,-49.21,296.48,5.06
129,144,Coahuayana Viejo,MX,1619458557,48,90,18.7333,-103.6833,302.15,3.07
130,146,Pisco,PE,1619458558,82,75,-13.7,-76.2167,293.15,4.63
131,147,Tailai,CN,1619458558,27,95,46.3833,123.4,288.99,6.39
132,148,East London,ZA,1619458476,83,0,-33.0153,27.9116,294.15,3.6
133,149,Torbay,CA,1619458559,46,90,47.6666,-52.7314,282.15,11.83
134,150,Smithers,CA,1619458560,42,20,54.7804,-127.1743,280.15,1.03
135,152,Ous,RU,1619458560,72,91,60.9058,61.5186,277.15,4.05
136,153,Johnstown,US,1619458015,29,1,40.3267,-78.922,284.26,5.66
137,154,Port Blair,IN,1619458561,75,79,11.6667,92.75,300.79,3.06
138,155,Aljezur,PT,1619458561,77,98,37.3191,-8.8033,291.18,3.64
139,156,Constitución,CL,1619458526,52,0,-35.3333,-72.4167,292.32,5.67
140,157,Suntar,RU,1619458562,83,92,62.1444,117.6319,266.64,3.69
141,158,Santa Cruz,MA,1619458563,46,75,30.4202,-9.5982,296.15,7.2
142,159,Lagoa,PT,1619458563,74,79,39.05,-27.9833,289.39,3.12
143,160,Potosí,BO,1619458564,10,0,-19.5836,-65.7531,285.06,2.01
144,161,Yulara,AU,1619458564,41,0,-25.2406,130.9889,287.15,3.6
145,162,Bambous Virieux,MU,1619458565,78,75,-20.3428,57.7575,299.15,6.17
147,164,Shimoda,JP,1619458439,74,60,34.6667,138.95,282.04,1.98
148,165,Conde,BR,1619458566,66,40,-7.2597,-34.9075,303.15,5.14
149,166,Paita,PE,1619458477,65,0,-5.0892,-81.1144,298.15,5.66
150,167,Yellowknife,CA,1619458512,60,40,62.456,-114.3525,257.15,5.66
151,168,Pryazha,RU,1619458567,81,100,61.6926,33.6216,276.15,6.0
152,169,Ahipara,NZ,1619458567,80,10,-35.1667,173.1667,286.78,3.0
154,171,George Town,MY,1619458438,89,40,5.4112,100.3354,300.15,1.03
155,172,Hervey Bay,AU,1619458569,82,0,-25.2986,152.8535,289.82,3.09
159,176,Shache,CN,1619458570,14,0,38.4167,77.2406,291.64,3.74
161,178,Hobart,AU,1619458571,87,3,-42.8794,147.3294,282.04,2.53
162,179,Craig,US,1619458572,9,1,40.5153,-107.5464,289.15,12.86
165,182,Săcel,RO,1619458573,72,100,47.6333,24.4333,275.5,0.49
166,183,Nouakchott,MR,1619458574,57,13,18.0858,-15.9785,298.15,10.8
168,185,Necochea,AR,1619458575,60,1,-38.5473,-58.7368,293.15,0.45
169,186,Eureka,US,1619458575,69,71,40.8021,-124.1637,284.82,0.45
170,187,Bar Harbor,US,1619458575,49,90,44.3876,-68.2039,283.15,5.66
171,188,Cascas,PE,1619458576,72,75,-7.4833,-78.8167,289.15,2.57
173,190,Avera,US,1619458577,41,1,33.194,-82.5271,297.15,3.6
174,191,Lake City,US,1619458467,50,75,30.1897,-82.6393,300.37,2.57
175,192,Codrington,AU,1619458578,76,87,-38.2667,141.9667,286.24,2.58
177,195,Puerto Ayora,EC,1619458578,65,20,-0.7393,-90.3518,302.15,4.12
178,196,Rawson,AR,1619458579,30,15,-43.3002,-65.1023,294.81,3.15
179,198,Lorengau,PG,1619458576,77,100,-2.0226,147.2712,300.04,0.48
180,199,Peace River,CA,1619458580,60,90,56.2501,-117.286,274.15,7.72
181,201,Sechura,PE,1619458580,57,17,-5.5569,-80.8222,300.01,4.35
182,202,Hutchinson,US,1619458479,36,1,38.0608,-97.9298,300.15,12.35
184,204,Parkes,AU,1619458581,78,0,-33.1333,148.1833,279.82,1.73
185,206,Tuatapere,NZ,1619458582,87,96,-46.1333,167.6833,277.59,3.13
186,207,Kavaratti,IN,1619458582,71,0,10.5669,72.642,302.51,3.16
187,208,Puerto Ayacucho,VE,1619458583,45,55,5.6639,-67.6236,307.36,1.4
188,209,Ancud,CL,1619458583,77,75,-41.8697,-73.8203,289.82,5.66
189,210,Kaitangata,NZ,1619458434,83,90,-46.2817,169.8464,278.15,1.34
190,211,Isangel,VU,1619458584,75,97,-19.55,169.2667,297.3,4.3
191,212,Great Falls,US,1619458585,49,1,47.5002,-111.3008,283.15,5.66
192,213,Ukiah,US,1619458522,62,1,39.1502,-123.2078,284.82,1.92
195,216,Mizdah,LY,1619458586,13,16,31.4451,12.9801,301.85,5.33
196,217,Aswān,EG,1619458587,14,0,24.0934,32.907,303.55,8.42
197,218,Hithadhoo,MV,1619458450,62,12,-0.6,73.0833,301.62,1.87
198,219,Itupiranga,BR,1619458587,69,69,-5.1347,-49.3267,303.09,0.9
199,220,Narsaq,GL,1619458588,81,75,60.9167,-46.05,277.15,4.12
200,221,Siyabuswa,ZA,1619458588,18,2,-25.1132,29.0445,291.89,1.65
201,222,São Filipe,CV,1619458589,77,18,14.8961,-24.4956,295.29,4.22
202,223,Ayr,GB,1619458589,87,75,55.4627,-4.6339,283.15,5.14
204,225,Yārāda,IN,1619458590,79,40,17.65,83.2667,302.15,3.09
205,226,Upernavik,GL,1619458591,90,89,72.7868,-56.1549,275.68,2.43
206,227,Faya,SA,1619458591,77,0,18.3851,42.4509,288.15,2.06
207,228,Qaanaaq,GL,1619458592,74,76,77.484,-69.3632,276.43,2.86
208,229,Tual,ID,1619458592,59,85,-5.6667,132.75,301.6,3.12
209,230,Vredendal,ZA,1619458593,83,24,-31.6683,18.5012,289.61,3.93
210,231,Broome,US,1619458593,54,26,42.2506,-75.833,280.93,2.24
211,232,Osakarovka,KZ,1619458594,81,100,50.565,72.5692,284.44,2.95
213,234,Pangnirtung,CA,1619458595,87,90,66.1451,-65.7125,275.15,2.06
215,237,La Flèche,FR,1619458596,32,0,47.6982,-0.0755,291.15,5.66
216,238,Granadilla de Abona,ES,1619458596,60,40,28.1188,-16.576,295.15,3.6
217,239,Dawei,MM,1619458597,90,73,14.0833,98.2,298.38,0.38
218,240,Lakatoro,VU,1619458597,83,49,-16.0999,167.4164,298.59,3.58
219,241,Cap Malheureux,MU,1619458572,84,100,-19.9842,57.6142,297.59,2.24
221,243,Provideniya,RU,1619458430,85,46,64.3833,-173.3,274.33,0.07
222,244,Portland,US,1619458383,71,90,45.5234,-122.6762,284.82,3.6
223,245,Witney,GB,1619458599,40,0,51.7836,-1.4854,286.15,3.09
226,249,Naze,JP,1619458600,67,67,28.3667,129.4833,290.12,5.25
227,250,Hasaki,JP,1619458601,57,20,35.7333,140.8333,281.15,2.06
228,251,Ust'-Koksa,RU,1619458601,75,91,50.2696,85.6108,273.59,0.81
229,252,Bilma,NE,1619458551,8,9,18.6853,12.9164,309.22,3.81
231,254,Cidreira,BR,1619458468,53,57,-30.1811,-50.2056,294.28,6.3
232,255,Taragual,HN,1619458603,54,40,14.75,-88.4833,302.15,4.12
233,256,Muros,ES,1619458603,80,25,42.7762,-9.0603,290.37,5.36
234,257,Nyurba,RU,1619458604,86,57,63.2842,118.3319,264.38,4.04
235,258,Ponta do Sol,PT,1619458476,74,46,32.6667,-17.1,293.15,1.34
236,259,São José da Coroa Grande,BR,1619458604,75,65,-8.8978,-35.1478,300.78,4.39
237,260,Balad,IQ,1619458605,13,65,34.0164,44.1453,307.81,9.8
238,261,Burns Lake,CA,1619458605,36,4,54.2331,-125.7533,281.15,1.03
239,262,Huilong,CN,1619458606,79,100,31.8111,121.655,292.04,5.19
240,263,Praia da Vitória,PT,1619458606,77,75,38.7333,-27.0667,290.37,2.52
241,264,Lambaréné,GA,1619458607,89,93,-0.7001,10.2406,299.12,2.15
243,266,Beyneu,KZ,1619458608,26,12,45.3167,55.2,298.5,3.3
244,267,Taldan,RU,1619458608,68,100,53.6667,124.8,279.92,2.22
245,268,Sisophon,KH,1619458609,79,89,13.5859,102.9737,300.32,2.37
246,269,Caravelas,BR,1619458609,60,72,-17.7125,-39.2481,301.79,4.32
248,271,Akçaabat,TR,1619458610,87,75,41.0212,39.5715,284.15,1.03
249,272,Lüderitz,NA,1619458611,89,48,-26.6481,15.1594,289.99,3.68
250,273,Davila,PH,1619458611,75,6,18.4726,120.5763,297.86,5.36
252,275,Kahului,US,1619458612,83,1,20.8947,-156.47,295.37,1.54
253,276,Pacific Grove,US,1619458506,51,1,36.6177,-121.9166,287.15,3.09
254,277,Olafsvik,IS,1619458613,62,4,64.8945,-23.7142,279.0,2.65
255,279,Mazara del Vallo,IT,1619458613,59,20,37.6641,12.588,292.15,14.92
256,280,Mel'nikovo,RU,1619458614,80,88,56.5558,84.085,278.34,4.29
257,281,Katherine,AU,1619458614,78,40,-14.4667,132.2667,298.15,4.63
258,282,Namatanai,PG,1619458615,81,12,-3.6667,152.4333,299.29,1.34
259,283,Laguna,US,1619458351,54,1,38.421,-121.4238,287.59,1.74
260,284,Hofn,IS,1619458615,70,20,64.2539,-15.2082,279.15,3.6
261,285,Spearfish,US,1619458616,81,75,44.4908,-103.8594,287.04,4.63
262,286,Anchorage,US,1619458373,60,1,61.2181,-149.9003,280.37,1.66
263,287,Ixtapa,MX,1619458617,57,75,20.7,-105.2,301.15,3.6
264,288,Salalah,OM,1619458617,74,20,17.0151,54.0924,301.15,3.09
265,289,Saint George,US,1619458377,58,75,37.1041,-113.5841,287.04,5.66
266,290,Grand Gaube,MU,1619458618,84,100,-20.0064,57.6608,297.59,2.24
267,291,Noril'sk,RU,1619458618,88,99,69.3535,88.2027,259.54,3.37
269,293,Punta Gorda,US,1619458420,30,1,26.9298,-82.0454,304.26,2.57
270,294,Labuhan,ID,1619458619,83,22,-6.8844,112.2051,298.71,3.19
271,295,Horizontina,BR,1619458620,41,0,-27.6258,-54.3078,296.48,2.63
272,296,Pundaguitan,PH,1619458620,76,78,6.3711,126.1689,300.16,2.58
273,297,Linhares,BR,1619458498,48,51,-19.3911,-40.0722,304.72,2.75
275,299,Daru,PG,1619458622,88,100,-9.0763,143.2092,298.11,1.34
276,300,Tumsar,IN,1619458622,12,91,21.3833,79.7333,305.39,2.13
277,301,Nagato,JP,1619458623,82,0,34.3833,131.2,285.15,1.54
278,303,Meulaboh,ID,1619458581,88,100,4.1363,96.1285,298.45,1.99
281,306,Tessalit,ML,1619458624,5,32,20.1986,1.0114,310.97,0.5
282,307,Minador do Negrão,BR,1619458625,60,92,-9.3053,-36.8647,301.61,5.32
283,308,Khonsa,IN,1619458625,31,45,27.0167,95.5667,294.39,2.24
285,310,Suruç,TR,1619458626,34,0,36.9761,38.425,293.15,8.23
286,311,Salto,UY,1619458594,56,75,-31.3833,-57.9667,294.26,3.09
288,313,Mattawa,US,1619458393,54,1,46.7379,-119.9028,287.59,4.63
289,314,Birobidzhan,RU,1619458628,39,57,48.8,132.95,280.22,0.53
290,315,Örnsköldsvik,SE,1619458628,64,0,63.2909,18.7153,275.15,3.09
291,316,Vostok,RU,1619458629,56,18,46.4856,135.8833,273.28,2.23
292,317,Piaçabuçu,BR,1619458629,68,95,-10.4056,-36.4344,301.73,3.85
293,318,Sakakah,SA,1619458630,8,40,29.9697,40.2064,307.15,12.86
294,319,Jämsä,FI,1619458630,87,90,61.8642,25.19,275.15,4.63
295,320,Ergani,TR,1619458631,30,0,38.2653,39.7621,295.15,4.12
297,322,Marabella,TT,1619458631,58,40,10.3062,-61.4467,305.37,6.17
298,324,Harrisburg,US,1619458552,26,1,40.2737,-76.8844,287.59,4.63
299,325,Lodwar,KE,1619458632,63,99,3.1191,35.5973,300.18,9.68
300,326,Wana,PK,1619458633,28,18,32.2989,69.5725,295.53,3.18
301,327,Kashgar,CN,1619458633,17,0,39.4547,75.9797,291.15,6.0
302,328,Serra,BR,1619458634,62,20,-20.1286,-40.3078,304.15,5.14
303,329,Goderich,CA,1619458564,60,75,43.7501,-81.7165,276.15,3.09
305,331,Port Lincoln,AU,1619458635,79,0,-34.7333,135.8667,289.1,3.28
306,332,Henderson,US,1619458460,38,90,36.0397,-114.9819,288.15,5.66
308,334,Prieska,ZA,1619458636,21,99,-29.6641,22.7474,296.15,4.36
309,335,Hoquiam,US,1619458637,81,90,46.9809,-123.8893,284.82,2.57
310,337,Mariinskiy Posad,RU,1619458637,45,0,56.115,47.718,279.15,5.0
311,338,Tarn Taran,IN,1619458638,47,20,31.45,74.9253,302.15,3.03
312,339,Cabo San Lucas,MX,1619458598,33,40,22.8909,-109.9124,299.82,4.7
313,340,Poum,NC,1619458638,73,12,-20.2333,164.0167,297.11,9.65
315,342,Aklavik,CA,1619458451,67,88,68.2191,-135.0107,261.15,4.63
316,343,Morondava,MG,1619458640,79,86,-20.2833,44.2833,299.75,5.22
317,344,Martapura,ID,1619458640,89,40,-3.4167,114.85,299.15,1.54
319,346,Norman Wells,CA,1619458641,48,75,65.282,-126.8329,262.15,2.57
320,347,Teeli,RU,1619458642,43,96,51.0333,90.2333,276.14,1.89
321,348,Porbandar,IN,1619458642,74,0,21.6422,69.6093,300.98,5.09
323,351,Gillette,US,1619458643,71,90,44.2911,-105.5022,284.26,3.6
324,352,Coquimbo,CL,1619458643,77,90,-29.9533,-71.3436,289.15,2.57
326,355,Camacha,PT,1619458644,68,40,33.0833,-16.3333,293.15,7.2
327,356,Boundiali,CI,1619458645,67,86,9.5217,-6.4869,299.56,2.06
328,357,Vila Franca do Campo,PT,1619458645,77,40,37.7167,-25.4333,290.15,6.17
330,359,Fortuna Foothills,US,1619458646,37,1,32.6578,-114.4119,293.15,5.66
331,360,Upata,VE,1619458647,33,94,8.0086,-62.3989,306.94,2.65
332,361,Srandakan,ID,1619458647,86,9,-7.9386,110.2506,297.6,2.06
333,362,Ati,TD,1619458648,12,73,13.2154,18.3353,308.97,3.31
334,363,Tadine,NC,1619458648,79,61,-21.55,167.8833,295.53,8.39
336,366,Mocajuba,BR,1619458649,71,100,-2.5842,-49.5072,302.13,0.63
337,367,Dawlatabad,AF,1619458650,19,0,36.4141,64.9053,297.97,1.74
338,368,Lompoc,US,1619458444,62,3,34.6391,-120.4579,287.59,4.12
339,369,Yerbogachën,RU,1619458650,81,42,61.2767,108.0108,264.52,3.73
340,370,Omboué,GA,1619458651,82,95,-1.5746,9.2618,300.31,2.83
341,371,Shelburne,CA,1619458651,25,61,44.0787,-80.2041,281.48,2.0
342,372,Asău,RO,1619458652,50,68,46.4333,26.4,279.26,0.82
343,373,Arlit,NE,1619458652,7,98,18.7369,7.3853,311.13,5.01
344,374,Mikhaylovka,RU,1619458504,77,100,50.06,43.2379,280.93,3.13
345,375,Nishihara,JP,1619458653,64,1,26.1842,127.7558,293.15,2.06
348,378,Kadiri,IN,1619458654,48,3,14.1167,78.1667,301.99,2.95
349,379,Chara,RU,1619458655,89,100,56.9064,118.2631,271.33,2.55
350,380,College,US,1619458655,49,75,64.8569,-147.8028,279.26,0.85
351,381,Sambava,MG,1619458656,87,29,-14.2667,50.1667,298.17,4.47
352,382,Khor,RU,1619458656,42,19,47.8861,134.9464,278.29,2.61
353,383,Velika Plana,RS,1619458657,44,0,44.3339,21.0768,289.15,2.06
354,384,Ierissos,GR,1619458524,84,11,40.4,23.8833,287.59,0.89
355,385,Bandarbeyla,SO,1619458657,71,77,9.4942,50.8122,301.84,3.48
356,386,Flinders,AU,1619458658,87,7,-34.5833,150.8552,285.93,0.45
358,388,Lavrentiya,RU,1619458659,82,78,65.5833,-171.0,268.48,1.39
359,389,Mackay,AU,1619458659,88,6,-21.15,149.2,289.15,2.57
360,391,Great Bend,US,1619458660,34,1,38.3645,-98.7648,303.15,7.72
361,392,Zhuhai,CN,1619458660,88,40,22.2769,113.5678,297.15,6.17
362,393,Nalvo,PH,1619458661,83,69,16.8096,120.5108,295.95,1.33
363,394,Yigou,CN,1619458661,53,35,35.8114,114.3167,288.54,2.76
364,395,Panacan,PH,1619458662,83,72,9.2463,118.4082,299.76,2.94
365,396,Chu,KZ,1619458662,37,68,43.5983,73.7614,286.01,2.88
366,397,Aripuanã,BR,1619458499,73,78,-9.1667,-60.6333,302.07,1.15
367,398,Shingū,JP,1619458663,62,64,33.7333,135.9833,281.85,2.35
368,399,La Ronge,CA,1619458663,29,64,55.1001,-105.2842,281.15,2.06
369,400,Turan,VN,1619458664,89,40,16.0678,108.2208,300.15,2.06
370,401,Berlevåg,NO,1619458664,64,40,70.8578,29.0864,275.15,6.17
371,402,Ouro Preto do Oeste,BR,1619458665,78,97,-10.7481,-62.2158,299.55,3.04
372,403,Vágur,FO,1619458665,89,100,61.4732,-6.8119,279.54,12.15
373,405,Guasdualito,VE,1619458666,55,99,7.2424,-70.7324,305.15,3.09
374,406,Santa Cruz del Norte,CU,1619458666,51,40,23.1539,-81.9236,305.15,5.66
376,408,Dhidhdhoo,MV,1619458667,71,22,6.8833,73.1,302.31,2.29
377,409,Capinzal,BR,1619458668,41,32,-27.3436,-51.6119,295.3,1.75
378,410,Gusau,NG,1619458668,11,42,12.1628,6.6614,310.59,2.93
379,411,Palmer,US,1619458669,28,20,42.1584,-72.3287,284.26,7.72
380,412,Biak,ID,1619458669,83,76,-0.9131,122.8766,297.45,2.23
381,413,Chui,UY,1619458670,54,40,-33.6971,-53.4616,292.35,5.05
382,414,Itaperuçu,BR,1619458670,64,40,-25.22,-49.3478,295.15,2.57
383,415,Taltal,CL,1619458455,68,14,-25.4,-70.4833,292.54,1.82
384,416,Newport,GB,1619458671,47,47,51.5877,-2.9984,287.59,4.12
385,417,Selaphum,TH,1619458671,81,100,16.0299,103.9383,297.83,2.13
386,418,Olavarría,AR,1619458672,58,3,-36.8927,-60.3225,291.22,2.59
387,419,Himatnagar,IN,1619458672,30,19,23.6,72.95,304.15,2.06
388,420,Kamphaeng Phet,TH,1619458673,70,100,16.25,99.5,300.94,1.31
389,424,Anloga,GH,1619458673,74,20,5.7947,0.8973,304.15,5.14
390,425,Soyo,AO,1619458674,84,77,-6.1349,12.3689,300.22,2.81
391,426,Toro,CO,1619458674,70,100,4.6117,-76.0814,299.8,1.18
392,427,Half Moon Bay,US,1619458617,82,20,37.4636,-122.4286,287.04,3.09
393,428,Madera,US,1619458675,72,35,37.1666,-119.8343,286.48,0.45
394,429,Olinda,BR,1619458676,65,40,-8.0089,-34.8553,301.15,4.12
395,430,Chimbote,PE,1619458676,71,17,-9.0853,-78.5783,295.8,5.35
396,431,Gawler,AU,1619458677,77,0,-34.6,138.7333,285.93,3.13
397,432,Murgab,TM,1619458677,33,2,37.4966,61.9714,298.15,2.06
398,433,Den Helder,NL,1619458677,71,90,52.9599,4.7593,281.15,6.17
399,434,Calbuco,CL,1619458678,63,20,-41.768,-73.1273,289.15,3.6
401,436,Santa Maria,BR,1619458679,52,75,-29.6842,-53.8069,294.15,1.54
402,437,Marawi,PH,1619458617,89,96,7.9986,124.2928,297.04,1.79
404,439,Mogadishu,SO,1619458680,75,92,2.0371,45.3438,301.87,5.57
405,440,Būlaevo,KZ,1619458681,43,59,54.9056,70.4439,281.04,2.97
407,442,Ishikari,JP,1619458682,73,6,43.2397,141.3539,272.04,2.39
408,443,Hopkinsville,US,1619458277,37,1,36.8656,-87.4886,295.37,4.12
409,444,Tekeli,KZ,1619458682,54,72,44.83,78.8239,280.22,4.16
410,447,Tepechitlán,MX,1619458683,18,100,21.6667,-103.3333,302.72,3.59
412,449,Qui Nhon,VN,1619458684,90,93,13.7667,109.2333,299.36,2.94
413,450,Morón,AR,1619458684,57,15,-34.6534,-58.6198,293.71,0.89
415,452,Ulaangom,MN,1619458685,55,96,49.9811,92.0667,274.74,1.81
418,455,San Antonio,US,1619458687,61,75,29.4241,-98.4936,300.37,3.6
419,456,Tabas,IR,1619458687,21,98,33.5959,56.9244,301.68,2.73
420,457,Samarai,PG,1619458688,80,99,-10.6167,150.6667,300.01,2.59
421,458,Madaoua,NE,1619458688,10,33,14.073,5.96,310.31,3.96
422,459,Brigham City,US,1619458689,81,90,41.5102,-112.0155,277.15,1.48
423,460,Kenai,US,1619458689,70,1,60.5544,-151.2583,277.15,3.6
425,462,Malim,PH,1619458690,76,81,7.452,123.4312,299.58,1.49
426,463,Sørland,NO,1619458691,81,20,67.667,12.6934,276.15,5.66
427,464,San Cristobal,VE,1619458522,55,40,7.7669,-72.225,305.15,4.63
428,465,Rocha,UY,1619458691,58,28,-34.4833,-54.3333,291.5,5.82
429,466,Novi Sanzhary,UA,1619458692,80,37,49.3439,34.3108,275.92,1.92
430,467,Boda,CF,1619458692,49,7,4.3189,17.4695,301.28,1.81
431,468,Wanlaweyn,SO,1619458693,65,98,2.6185,44.8938,301.87,5.54
432,469,Pochutla,MX,1619458693,62,75,15.7432,-96.4661,306.48,6.69
433,470,Nioro,GM,1619458694,12,13,13.35,-15.75,311.9,3.56
434,471,Arraial do Cabo,BR,1619458694,78,20,-22.9661,-42.0278,300.15,4.63
436,474,La Santisima Trinidad,BO,1619458695,65,75,-14.8333,-64.9,298.15,5.14
437,475,Iqaluit,CA,1619458618,86,75,63.7506,-68.5145,274.15,4.12
438,476,Yangi Marg`ilon,UZ,1619458696,40,0,40.4272,71.7189,293.15,3.09
439,477,Kyshtovka,RU,1619458697,75,43,56.555,76.6271,279.01,2.83
440,478,Mahébourg,MU,1619458630,78,75,-20.4081,57.7,299.15,6.17
442,480,Yeppoon,AU,1619458699,72,1,-23.1333,150.7333,292.15,3.6
444,483,Auki,SB,1619458700,85,100,-8.7676,160.7034,299.35,1.61
445,484,Erzin,TR,1619458700,84,5,36.9559,36.2,292.59,0.45
446,485,Årdalstangen,NO,1619458701,33,0,61.2371,7.6983,279.15,1.03
449,488,Guerrero Negro,MX,1619458703,55,91,27.9769,-114.0611,291.73,5.23
450,489,Acaraú,BR,1619458703,71,49,-2.8856,-40.12,302.32,5.93
451,490,Alta Floresta,BR,1619458704,74,75,-9.8756,-56.0861,301.15,0.51
452,491,Oussouye,SN,1619458705,69,0,12.485,-16.5469,307.15,5.14
453,492,Sitka,US,1619458705,66,1,57.0531,-135.33,281.15,1.55
454,493,Adrar,MR,1619458705,12,36,20.5022,-10.0711,309.72,3.4
456,495,San Vicente,AR,1619458706,33,0,-26.6167,-54.1333,295.17,1.85
457,496,Souillac,MU,1619458452,78,75,-20.5167,57.5167,299.15,6.17
458,497,Kruisfontein,ZA,1619458534,88,100,-34.0033,24.7314,289.82,1.79
459,498,Maceió,BR,1619458444,58,20,-9.6658,-35.7353,303.15,3.6
460,499,Angoche,MZ,1619458708,82,60,-16.2325,39.9086,298.7,2.33
461,500,Tateyama,JP,1619458709,54,20,34.9833,139.8667,284.15,5.14
462,501,Sahuaripa,MX,1619458709,10,83,29.05,-109.2333,303.57,7.14
463,502,Kununurra,AU,1619458709,88,75,-15.7667,128.7333,297.15,1.03
464,503,Loandjili,CG,1619458710,84,20,-4.7561,11.8578,302.15,4.12
465,504,Kozhva,RU,1619458710,87,100,65.1073,57.0459,276.76,1.89
466,505,Sistranda,NO,1619458711,70,75,63.7256,8.834,278.15,4.63
467,506,Kieta,PG,1619458712,82,33,-6.2167,155.6333,299.25,1.42
468,507,Mindelo,CV,1619458712,53,75,16.8901,-24.9804,298.15,12.35
471,510,Dali,CN,1619458714,45,0,25.7,100.1833,287.68,2.36
472,511,Manresa,ES,1619458714,87,100,41.725,1.8266,284.82,1.03
473,513,Poso,ID,1619458715,89,74,-1.3959,120.7524,297.9,1.94
474,514,Guider,CM,1619458715,14,20,9.9342,13.9486,321.15,3.6
475,515,Hermiston,US,1619458716,44,1,45.8404,-119.2895,287.15,3.09
476,516,Whitehorse,CA,1619458716,42,1,60.7161,-135.0538,283.15,1.03
477,517,Tahoua,NE,1619458717,11,20,14.8888,5.2692,314.15,3.09
478,518,Stary Krym,UA,1619458718,61,34,45.0333,35.1,280.41,2.93
479,519,Korla,CN,1619458718,31,21,41.7597,86.1469,286.8,3.78
480,520,Najrān,SA,1619458719,78,75,17.4924,44.1277,294.15,4.12
481,521,Arrondissement de Dole,FR,1619458719,34,0,47.0833,5.5,293.15,7.2
482,522,Vestmannaeyjar,IS,1619458720,71,0,63.4427,-20.2734,282.15,4.12
485,525,Los Llanos de Aridane,ES,1619458489,60,75,28.6585,-17.9182,295.15,1.54
486,526,Sukhobuzimskoye,RU,1619458722,80,0,56.5,93.2728,273.15,1.68
488,528,Fort Nelson,CA,1619458723,80,90,58.8053,-122.7002,269.15,3.6
489,529,Yarovoy,RU,1619458723,65,100,52.9273,78.58,283.74,3.73
490,530,Kungurtug,RU,1619458724,88,74,50.5994,97.5228,265.29,1.05
491,531,Sāsni,IN,1619458724,8,0,27.7167,78.0833,303.67,3.0
492,532,Kutum,SD,1619458725,7,54,14.2,24.6667,300.78,4.9
493,533,Lexington,US,1619458642,39,1,37.9887,-84.4777,294.26,3.09
495,535,Mossamedes,AO,1619458726,73,10,-15.1961,12.1522,298.06,5.2
497,537,Kez,RU,1619458727,84,99,57.8979,53.7152,276.67,6.04
500,540,Eenhana,NA,1619458729,27,3,-17.4667,16.3333,299.15,1.03
501,541,Pyu,MM,1619458729,81,43,18.4833,96.4333,298.47,2.43
503,543,Plettenberg Bay,ZA,1619458730,79,100,-34.0527,23.3716,291.07,3.12
504,544,São Paulo de Olivença,BR,1619458731,71,82,-3.3783,-68.8725,303.05,1.49
505,545,Bollnäs,SE,1619458731,61,43,61.3482,16.3946,275.9,1.84
507,547,Tautira,PF,1619458732,78,40,-17.7333,-149.15,299.15,3.09
508,548,Nouadhibou,MR,1619458446,64,0,20.931,-17.0347,295.15,9.26
509,549,Novovarshavka,RU,1619458733,59,78,54.1721,74.6946,283.23,3.46
510,550,Lunsar,SL,1619458733,39,97,8.6833,-12.5333,307.13,2.06
511,551,Kragerø,NO,1619458734,59,10,58.8693,9.4149,279.82,3.58
512,552,‘Āhuimanu,US,1619458734,64,20,21.4447,-157.8378,297.15,2.57
513,553,Leh,IN,1619458735,29,7,34.1667,77.5833,275.38,1.45
514,554,Pimentel,PE,1619458735,64,0,-6.8367,-79.9342,296.15,7.2
515,555,Rosarito,MX,1619458736,67,90,32.3333,-117.0333,288.15,3.09
516,556,Boshnyakovo,RU,1619458737,72,31,49.6333,142.1667,270.31,2.93
517,557,Linxia Chengguanzhen,CN,1619458737,52,34,35.6003,103.2064,279.37,1.62
518,558,Assiut,EG,1619458738,41,0,27.181,31.1837,298.15,6.17
519,559,Henties Bay,NA,1619458738,84,2,-22.116,14.2845,291.48,3.13
520,560,Agadez,NE,1619458739,9,0,19.75,10.25,307.76,3.16
523,563,Hambantota,LK,1619458530,82,53,6.1241,81.1185,300.13,3.26
524,564,Fallon,US,1619458740,34,40,39.4735,-118.7774,281.48,2.57
525,565,Altar,MX,1619458741,17,8,30.7,-111.8167,299.02,6.83
526,566,Moree,AU,1619458741,82,0,-29.4667,149.85,284.15,5.14
527,567,Sumter,US,1619458742,54,17,28.7086,-82.0831,301.48,2.68
528,568,San Patricio,US,1619458483,61,75,28.017,-97.5169,302.15,7.72
529,569,Haines Junction,CA,1619458743,48,0,60.7522,-137.5108,277.15,1.03
530,570,Corpus Christi,US,1619458517,69,75,27.8006,-97.3964,300.93,8.75
531,571,Kamenka,RU,1619458633,66,95,51.3223,42.7678,280.17,3.59
532,572,Gijón,ES,1619458708,75,66,43.5357,-5.6615,290.37,0.89
533,573,Sandnessjøen,NO,1619458744,70,40,66.0217,12.6316,277.15,5.14
534,574,Finschhafen,PG,1619458744,82,78,-6.6024,147.8681,298.93,2.19
535,576,Sturgis,US,1619458745,51,1,41.7992,-85.4192,288.71,5.66
536,577,Lata,PT,1619458453,83,84,40.1629,-8.3327,292.04,0.89
537,578,San Carlos del Zulia,VE,1619458746,48,88,9.0,-71.9135,306.59,0.48
539,580,Lyuban',BY,1619458747,68,69,52.7985,28.0048,274.63,3.0
540,581,Bozoum,CF,1619458747,45,46,6.3193,16.3799,300.26,0.92
541,582,Panama City,PA,1619458488,55,40,8.9936,-79.5197,305.37,8.23
542,583,Abu Dhabi,AE,1619458748,40,0,24.4667,54.3667,305.15,3.09
544,585,Araouane,ML,1619458511,8,93,18.9048,-3.5265,311.16,3.89
545,586,Saint Anthony,US,1619458750,65,1,45.0205,-93.218,283.15,4.63
548,589,Emmett,US,1619458751,74,100,43.8735,-116.4993,282.59,0.45
549,590,Pemangkat,ID,1619458752,84,43,1.1667,108.9667,299.17,1.41
550,591,Nuevo Progreso,MX,1619458752,51,85,23.1667,-97.95,304.82,2.68
551,592,Cabra,ES,1619458753,71,95,37.4725,-4.4421,290.93,1.79
552,593,Kavieng,PG,1619458753,76,95,-2.5744,150.7967,300.48,0.93
553,594,Havøysund,NO,1619458754,86,75,70.9963,24.6622,273.15,3.6
556,597,Calatayud,ES,1619458755,88,90,41.3535,-1.6432,287.15,4.12
557,598,Maïné Soroa,NE,1619458756,8,42,13.2114,12.0241,307.72,4.19
558,599,Vao,NC,1619458500,68,90,-22.6667,167.4833,296.33,10.27
560,601,Zabul Province,AF,1619458757,13,0,32.25,67.25,293.74,4.96
561,602,Chornyanka,UA,1619458758,70,0,46.6522,33.359,280.93,2.0
563,604,Tiznit Province,MA,1619458519,64,53,29.5833,-9.5,291.02,5.5
564,605,Biloela,AU,1619458759,88,0,-24.4167,150.5,287.65,2.52
567,608,Vila Velha,BR,1619458760,62,20,-20.3297,-40.2925,304.15,5.14
568,609,Talakan,RU,1619458761,44,100,50.3167,130.3667,281.03,2.65
569,610,Zhezkazgan,KZ,1619458761,39,84,47.8043,67.7144,288.64,4.43
570,611,Oddur,SO,1619458762,57,99,4.1213,43.8894,300.8,3.88
572,613,Vero Beach,US,1619458537,57,40,27.6386,-80.3973,300.15,4.12
573,614,Kumluca,TR,1619458763,54,2,36.3703,30.2869,293.6,2.79
574,615,Ferme-Neuve,CA,1619458764,22,43,46.7001,-75.4493,279.15,6.17
576,617,Ekhabi,RU,1619458765,86,10,53.5102,142.9671,268.31,3.53
577,618,Sabha,LY,1619458765,15,6,27.0377,14.4283,303.5,4.87
578,619,Nanhai,CN,1619458766,88,75,30.1282,111.7784,288.15,0.42
579,620,Okhotsk,RU,1619458766,84,64,59.3833,143.3,265.65,1.47
580,621,Hailar,CN,1619458767,74,37,49.2,119.7,276.88,10.27
